[
    {
        "name": "Yellow Vest Movement (Gilets Jaunes)",
        "coordinates": [2.3477187162899495, 48.85837373855616],
        "logo": "https://i.redd.it/jibbe0mfa7321.png",
        "article": "https://www.moderninsurgent.org/post/gilets-jaunes-yellow-vests-movement",
        "status": "nonviolent",
	"size": "very_small"
    },
    {
        "name": "Donetsk People’s Republic (DPR)",
        "coordinates": [37.797900929904436, 48.02032062720348],
        "logo": "https://upload.wikimedia.org/wikipedia/commons/f/fc/Flag_of_Donetsk_People%27s_Republic.svg",
        "article": "https://www.moderninsurgent.org/post/donetsk-people-s-republic-dpr",
        "status": "violent",
	"size": "large"
    },
    {
        "name": "Free Papua Movement (OPM)",
        "coordinates": [138.1140607245304, -4.327631310088657],
        "logo": "https://upload.wikimedia.org/wikipedia/commons/e/ed/Morning_Star_flag.svg",
        "article": "https://www.moderninsurgent.org/post/free-papua-movement-opm",
        "status": "violent",
	"size": "somewhat_large"
    },
    {
        "name": "North Korean People's Liberation Front (NKPLF)",
        "coordinates": [125.7379324455391, 39.039129607273765],
        "logo": "https://upload.wikimedia.org/wikipedia/en/d/dd/North_Korean_People%27s_Liberation_Front_logo.jpg",
        "article": "https://www.moderninsurgent.org/post/north-korean-people-s-liberation-front-nkplf",
        "status": "nonviolent",
	"size": "very_small"
    },
    {
        "name": "Karen National Liberation Army (KNLA)",
        "coordinates": [97.97515220125595, 16.982692444177523],
        "logo": "https://upload.wikimedia.org/wikipedia/commons/3/38/Flag_of_the_KNLA.svg",
        "article": "https://www.moderninsurgent.org/post/karen-national-liberation-army-knla-1",
        "status": "violent",
	"size": "somewhat_large"
    },
    {
        "name": "Islamic State - Caucasus Province (IS-CP)",
        "coordinates": [45.69531777373943, 43.37252318350709],
        "logo": "https://upload.wikimedia.org/wikipedia/commons/f/f7/Logo_of_ISCP.png",
        "article": "https://www.moderninsurgent.org/post/islamic-state-caucasus-province-is-cp",
        "status": "inactive",
	"size": "somewhat_large"
    },
    {
        "name": "Women Democratic Front (WDF)",
        "coordinates": [68.35610177994722, 25.39019294937058],
        "logo": "https://wdfpk.org/wp-content/uploads/2020/02/wdf-logo-hero-6.png",
        "article": "https://www.moderninsurgent.org/post/women-democratic-front-wdf",
        "status": "nonviolent",
	"size": "very_small"
    },
    {
        "name": "All Burma Students' Democratic Front",
        "coordinates": [96.17035546197106, 16.827406205207065],
        "logo": "https://upload.wikimedia.org/wikipedia/commons/e/e9/Fighting_peacock_flag.svg",
        "article": "https://www.moderninsurgent.org/post/all-burma-students-democratic-front",
        "status": "violent",
	"size": "somewhat_small"
    },
    {
        "name": "Myanmar People's Defence Force (PDF)",
        "coordinates": [94.91367068943698, 24.307584623423704],
        "logo": "https://upload.wikimedia.org/wikipedia/commons/8/84/Flag_of_PDF_Myanmar.svg",
        "article": "https://www.moderninsurgent.org/post/myanmar-people-s-defence-force-pdf",
        "status": "violent",
	"size": "somewhat_large"
    },
    {
        "name": "Naxalite Movement",
        "coordinates": [83.48527187509312, 20.698425943427317],
        "logo": "https://upload.wikimedia.org/wikipedia/commons/6/67/South_Asian_Communist_Banner.svg",
        "article": "https://www.moderninsurgent.org/post/naxalite-movement",
        "status": "violent",
	"size": "large"
    },
    {
        "name": "East Turkestan Liberation Organisation (ETLO)",
        "coordinates": [85.74308322318255, 40.33584508698343],
        "logo": "https://upload.wikimedia.org/wikipedia/commons/2/2c/Kokbayraq_flag.svg",
        "article": "https://www.moderninsurgent.org/post/east-turkestan-liberation-organisation-etlo",
        "status": "nonviolent",
	"size": "somewhat_large"
    },
    {
        "name": "Jammu and Kashmir Liberation Front (JKLF)",
        "coordinates": [75.6424811099595, 33.652938560554986],
        "logo": "https://static.wixstatic.com/media/59184a_5c979feeaca541f59acad071349eadea~mv2.png",
        "article": "https://www.moderninsurgent.org/post/jammu-kashmir-liberation-front-jklf",
        "status": "nonviolent",
	"size": "somewhat_large"
    },
    {
        "name": "People’s Mojahiden Organisation of Iran (PMOI/MEK)",
        "coordinates": [51.33678430427351, 35.70301468326439],
        "logo": "https://upload.wikimedia.org/wikipedia/commons/3/36/People%27s_Mujahedin_Organization_of_Iran_Logo.jpg",
        "article": "https://www.moderninsurgent.org/post/mojaehdin-e-kalq-mek",
        "status": "nonviolent",
	"size": "somewhat_small"
    },
    {
        "name": "Houthi Movement",
        "coordinates": [44.1874137055769, 15.358922018745387],
        "logo": "https://en.wikipedia.org/wiki/Houthi_movement#/media/File:Slogan_of_the_Houthi_Movement.svg",
        "article": "https://www.moderninsurgent.org/post/houthi-movement",
        "status": "violent",
	"size": "large"
    },
    {
        "name": "Al-Qaeda in the Sinai Peninsula (AQSP)",
        "coordinates": [33.744699165421, 29.907369387834013],
        "logo": "https://upload.wikimedia.org/wikipedia/commons/3/30/Flag_of_Jihad.svg",
        "article": "https://www.moderninsurgent.org/post/al-qaeda-in-the-sinai-peninsula-aqsp",
        "status": "violent",
	"size": "large"
    },
    {
        "name": "Hasm Movement",
        "coordinates": [31.23242384431984, 30.037598244005903],
        "logo": "https://upload.wikimedia.org/wikipedia/en/1/1f/Logo_of_the_Hasm_Movement.jpg",
        "article": "https://www.moderninsurgent.org/post/hasm-movement",
        "status": "violent",
	"size": "somewhat_small"
    },
    {
        "name": "Hezbollah",
        "coordinates": [35.48480678938505, 33.36822131653822],
        "logo": "https://upload.wikimedia.org/wikipedia/en/8/8f/Logo_of_the_Hezbollah.svg",
        "article": "https://www.moderninsurgent.org/post/hezbollah-1",
        "status": "violent",
	"size": "large"
    },
    {
        "name": "Hay'at Tahrir al-Sham (HTS)",
        "coordinates": [36.64209360079086, 35.93059973462643],
        "logo": "https://upload.wikimedia.org/wikipedia/en/d/d8/Hayyat_Tahrir_al-Sham_logo.jpg",
        "article": "https://www.moderninsurgent.org/post/hay-at-tahrir-al-sham-hts",
        "status": "violent",
	"size": "somewhat_small"
    },
    {
        "name": "Free Syrian Army (FSA)",
        "coordinates": [37.367551242491096, 36.06660622164236],
        "logo": "https://upload.wikimedia.org/wikipedia/en/0/05/Free_syrian_army_coat_of_arms.svg",
        "article": "https://www.moderninsurgent.org/post/free-syrian-army-fsa",
        "status": "violent",
	"size": "large"
    },
    {
        "name": "People’s Defense Units (YPG)",
        "coordinates": [38.9977834788394, 35.95801104262139],
        "logo": "https://upload.wikimedia.org/wikipedia/commons/3/32/People%27s_Protection_Units_Flag.svg",
        "article": "https://www.moderninsurgent.org/post/yekîneyên-parastina-gel-ypg-people-s-defense-units",
        "status": "violent",
	"size": "somewhat_large"
    },
    {
        "name": "Nineveh Plain Protection Units (NPU)",
        "coordinates": [42.23248372308595, 36.220126117367506],
        "logo": "https://upload.wikimedia.org/wikipedia/commons/e/e5/Emblem_of_the_Nineveh_Plain_Protection_Units.svg",
        "article": "https://www.moderninsurgent.org/post/nineveh-plain-protection-units",
        "status": "violent",
	"size": "somewhat_small"
    },
    {
        "name": "Peshmerga",
        "coordinates": [43.99228171232885, 36.18561344838884],
        "logo": "https://upload.wikimedia.org/wikipedia/commons/3/35/Flag_of_Kurdistan.svg",
        "article": "https://www.moderninsurgent.org/post/peshmerga",
        "status": "violent",
	"size": "somewhat_large"
    },
    {
        "name": "Komala Party of Iranian Kurdistan",
        "coordinates": [47.13473491693141, 35.38491359915628],
        "logo": "https://upload.wikimedia.org/wikipedia/commons/0/05/The_Official_Logo_Of_Komala.png",
        "article": "https://www.moderninsurgent.org/post/komala-party-of-iranian-kurdistan",
        "status": "violent",
	"size": "somewhat_large"
    },
    {
        "name": "Free Life Party of Kurdistan (PJAK)",
        "coordinates": [46.29254323565742, 38.07211601743918],
        "logo": "https://upload.wikimedia.org/wikipedia/commons/6/6b/Flag_of_Partiya_Jiyana_Azad_a_Kurdistanê.svg",
        "article": "https://www.moderninsurgent.org/post/free-life-party-of-kurdistan-pjak",
        "status": "violent",
	"size": "somewhat_small"
    },
    {
        "name": "Kurdish Hezbollah",
        "coordinates": [41.12690739265977, 37.877901118988014],
        "logo": "https://upload.wikimedia.org/wikipedia/commons/5/58/Kurdish_Hezbollah_flag.svg",
        "article": "https://www.moderninsurgent.org/post/kurdish-hezbollah",
        "status": "violent",
	"size": "somewhat_small"
    },
    {
        "name": "Marxist-Leninist Communist Party (MLKP)",
        "coordinates": [37.37696589783015, 37.06363562060841],
        "logo": "https://upload.wikimedia.org/wikipedia/commons/1/13/MLKP_Badge.svg",
        "article": "https://www.moderninsurgent.org/post/marxist-leninist-communist-party-mlkp",
        "status": "violent",
	"size": "somewhat_large"
    },
    {
        "name": "Kurdistan Worker's Party (PKK)",
        "coordinates": [38.79409489791327, 37.16495814311991],
        "logo": "https://upload.wikimedia.org/wikipedia/commons/d/df/Flag_of_Kurdistan_Workers%27_Party.svg",
        "article": "https://www.moderninsurgent.org/post/the-kurdistan-worker-s-party-pkk",
        "status": "violent",
	"size": "somewhat_large"
    },
    {
        "name": "Security Forces Command (SFC)",
        "coordinates": [33.74259540837951, 35.25613359132857],
        "logo": "https://upload.wikimedia.org/wikipedia/en/a/ad/Güvenlik_Kuvvetleri_Komutanlığı_%28emblem%29.jpg",
        "article": "https://www.moderninsurgent.org/post/security-forces-command-sfc",
        "status": "violent",
	"size": "somewhat_large"
    },
    {
        "name": "Artsakh Defence Army (ADA)",
        "coordinates": [46.76022224480064, 39.82321341909477],
        "logo": "https://upload.wikimedia.org/wikipedia/en/1/15/Artsakh_Defence_Army_logo.png",
        "article": "https://www.moderninsurgent.org/post/artsakh-defence-army-ada",
        "status": "violent",
	"size": "somewhat_large"
    },
    {
        "name": "Armed Forces of South Ossetia (AFSO)",
        "coordinates": [44.11404547203596, 42.38279847847601],
        "logo": "https://upload.wikimedia.org/wikipedia/commons/5/5c/Flag_of_the_Armed_Forces_of_South_Ossetia.gif",
        "article": "https://www.moderninsurgent.org/post/armed-forces-of-south-ossetia-afso",
        "status": "violent",
	"size": "somewhat_large"
    },
    {
        "name": "Abkhazian Armed Forces (AAF)",
        "coordinates": [41.05294059826748, 43.16121301983323],
        "logo": "https://upload.wikimedia.org/wikipedia/commons/9/9f/Flag_of_the_armed_formations_of_self-proclaimed_Republic_of_Abkhazia.png",
        "article": "https://www.moderninsurgent.org/post/abkhazian-armed-forces-aaf",
        "status": "violent",
	"size": "somewhat_large"
    },
    {
        "name": "Grey Wolves",
        "coordinates": [32.8609415853856, 39.93222479960921],
        "logo": "https://upload.wikimedia.org/wikipedia/en/d/dc/Grey_Wolves_Logo.svg",
        "article": "https://www.moderninsurgent.org/post/grey-wolves",
        "status": "violent",
	"size": "somewhat_large"
    },
    {
        "name": "Revolutionary People's Liberation Party-Front (DHKP-C)",
        "coordinates": [28.976084841825035, 41.00687712753727],
        "logo": "https://upload.wikimedia.org/wikipedia/commons/5/53/DHKP.svg",
        "article": "https://www.moderninsurgent.org/post/revolutionary-people-s-liberation-party-front-dhkp-c",
        "status": "violent",
	"size": "somewhat_small"
    },
    {
        "name": "Azov Regiment",
        "coordinates": [34.177747081525084, 45.26931849312728],
        "logo": "https://upload.wikimedia.org/wikipedia/commons/f/fa/AZOV_logo.svg",
        "article": "https://www.moderninsurgent.org/post/azov-regiment",
        "status": "violent",
	"size": "large"
    },
    {
        "name": "Sheikh Mansur Battalion (SMB)",
        "coordinates": [38.920553074926374, 48.22956280323166],
        "logo": "https://upload.wikimedia.org/wikipedia/commons/9/90/Insignia_of_the_Sheikh_Mansur_battalion.png",
        "article": "https://www.moderninsurgent.org/post/sheikh-mansur-battalion-smb",
        "status": "violent",
	"size": "somewhat_small"
    },
    {
        "name": "Revolutionary Action (Rev Dia)",
        "coordinates": [30.846641027477197, 51.95121575187269],
        "logo": "https://upload.wikimedia.org/wikipedia/commons/1/12/Revolutionary_Action_emblem.svg",
        "article": "https://www.moderninsurgent.org/post/revolutionary-action-rev-dia-rd",
        "status": "violent",
	"size": "somewhat_small"
    },
    {
        "name": "Hoods Hoods Klan (HHK)",
        "coordinates": [30.5260703425726, 50.436263928731506],
        "logo": "https://static.wixstatic.com/media/c24061_bfd06707b0264c799c27fcd2af9de86e~mv2.png",
        "article": "https://www.moderninsurgent.org/post/hoods-hoods-klan-hhk-1",
        "status": "violent",
	"size": "very_small"
    },
    {
        "name": "Wagner Group",
        "coordinates": [37.6191539582028, 55.74957773433265],
        "logo": "https://upload.wikimedia.org/wikipedia/en/0/0a/Logo_of_the_Wagner_Group_%28since_April_2023%29.svg",
        "article": "https://www.moderninsurgent.org/post/wagner-group",
        "status": "violent",
	"size": "large"
    },
    {
        "name": "Cyber Partisans",
        "coordinates": [27.55740014341168, 53.89920977450807],
        "logo": "https://upload.wikimedia.org/wikipedia/en/9/98/Belarus_Cyber_Partisans_logo.jpg",
        "article": "https://www.moderninsurgent.org/post/cyber-partisans",
        "status": "hacktivist",
	"size": "somewhat_small"
    },
    {
        "name": "Nordic Resistance Movement (NRM)",
        "coordinates": [18.05758647951129, 59.32213034800904],
        "logo": "https://upload.wikimedia.org/wikipedia/commons/7/7f/Logo_of_the_Nordic_Resistance_Movement.svg",
        "article": "https://www.moderninsurgent.org/post/nordic-resistance-movement-nrm",
        "status": "violent",
	"size": "somewhat_large"
    },
    {
        "name": "Armed Forces of the Pridnestrovian Moldovan Republic (AFPMR)",
        "coordinates": [29.60291344602924, 46.844812184179645],
        "logo": "https://upload.wikimedia.org/wikipedia/commons/4/4d/Emblem_of_the_armed_forces_of_Transnistria.svg",
        "article": "https://www.moderninsurgent.org/post/armed-forces-of-the-pridnestrovian-moldovan-republic-afpmr",
        "status": "violent",
	"size": "somewhat_large"
    },
    {
        "name": "St. Pauli Football Club Ultras",
        "coordinates": [9.967632811342943, 53.55469738325404],
        "logo": "https://upload.wikimedia.org/wikipedia/en/8/8f/FC_St._Pauli_logo_%282018%29.svg",
        "article": "https://www.moderninsurgent.org/post/st-pauli-football-club-ultras",
        "status": "nonviolent",
	"size": "very_small"
    },
    {
        "name": "Slovenski Branci",
        "coordinates": [17.111785375862016, 48.14620113848511],
        "logo": "https://static.wixstatic.com/media/c24061_840ac850166d4273af7327f262a67e23~mv2.png",
        "article": "https://www.moderninsurgent.org/post/slovenski-branci",
        "status": "inactive",
	"size": "very_small"
    },
    {
        "name": "Free Republic of Liberland",
        "coordinates": [18.944601258738807, 45.68907243845381],
        "logo": "https://upload.wikimedia.org/wikipedia/commons/7/75/Flag_of_Liberland.svg",
        "article": "https://www.moderninsurgent.org/post/free-republic-of-liberland",
        "status": "nonviolent",
	"size": "very_small"
    },
    {
        "name": "Kosovo Liberation Army (KLA)",
        "coordinates": [21.163464813309684, 42.65445246147283],
        "logo": "https://upload.wikimedia.org/wikipedia/commons/3/3a/Emblema_e_UÇK-së.svg",
        "article": "https://www.moderninsurgent.org/post/kosovo-liberation-army-kla",
        "status": "inactive",
	"size": "somewhat_large"
    },
    {
        "name": "Informal Anarchist Federation (FAI)",
        "coordinates": [11.343011995699285, 44.494435697407006],
        "logo": "https://upload.wikimedia.org/wikipedia/commons/a/a7/Logo_de_la_FAI.svg",
        "article": "https://www.moderninsurgent.org/post/informal-anarchist-federation-fai",
        "status": "violent",
	"size": "somewhat_small"
    },
    {
        "name": "National Liberation Front of Corsica (FLNC)",
        "coordinates": [9.105820638019347, 42.07846928665007],
        "logo": "https://upload.wikimedia.org/wikipedia/commons/f/f0/Flag_of_Corsica_and_FLNC_wordmark.svg",
        "article": "https://www.moderninsurgent.org/post/national-liberation-front-of-corsica-flnc",
        "status": "inactive",
	"size": "somewhat_large"
    },
    {
        "name": "Regional Committee for Viticultural Action (CRAV)",
        "coordinates": [3.3596058258622055, 43.57123324098117],
        "logo": "https://upload.wikimedia.org/wikipedia/commons/c/c2/Flag_of_Languedoc-Roussillon.svg",
        "article": "https://www.moderninsurgent.org/post/regional-committee-for-viticultural-action-crav",
        "status": "violent",
	"size": "somewhat_small"
    },
    {
        "name": "Generation Identity (GI)",
        "coordinates": [4.834080051713088, 45.76239567213778],
        "logo": "https://upload.wikimedia.org/wikipedia/commons/c/c1/Logo_of_Identitarian_Generation_2.svg",
        "article": "https://www.moderninsurgent.org/post/generation-identity-gi",
        "status": "nonviolent",
	"size": "somewhat_small"
    },
    {
        "name": "Patriotic Alternative",
        "coordinates": [-1.5414466940271567, 53.99178927738933],
        "logo": "https://upload.wikimedia.org/wikipedia/commons/b/b7/Flag_of_Patriotic_Alternative.svg",
        "article": "https://www.moderninsurgent.org/post/patriotic-alternative",
        "status": "nonviolent",
	"size": "somewhat_small"
    },
    {
        "name": "Irish National Liberation Army (INLA)",
        "coordinates": [-5.929724810904211, 54.59604543904123],
        "logo": "https://upload.wikimedia.org/wikipedia/commons/a/a7/Irish_National_Liberation_Army_%28INLA%29_Brigades_flag.png",
        "article": "https://www.moderninsurgent.org/post/irish-national-liberation-army-inla",
        "status": "inactive",
	"size": "somewhat_large"
    },
    {
        "name": "Association of Security Forces of Belarus (BYPOL)",
        "coordinates": [28.08860111739928, 53.1810152960975],
        "logo": "https://upload.wikimedia.org/wikipedia/commons/7/7d/BYPOL._Аб%27яднанне_сілавікоў_Беларусі.png",
        "article": "https://www.moderninsurgent.org/post/association-of-security-forces-of-belarus-bypol",
        "status": "violent",
	"size": "somewhat_small"
    },
    {
        "name": "Ajnad al-Kavkaz",
        "coordinates": [35.79003660405732, 35.533757246087916],
        "logo": "https://upload.wikimedia.org/wikipedia/en/7/78/Ajnad_Al-Kavkaz_flag.svg",
        "article": "https://www.moderninsurgent.org/post/ajnad-al-kavkaz",
        "status": "violent",
	"size": "somewhat_large"
    },
    {
        "name": "Conspiracy of the Cells of Fire Nuclei (CCF)",
        "coordinates": [22.94428878925438, 40.63750305042338],
        "logo": "https://upload.wikimedia.org/wikipedia/commons/7/7f/Conspiracy_of_Fire_Nuclei%2C_Logo.jpg",
        "article": "https://www.moderninsurgent.org/post/conspiracy-of-the-cells-of-fire-nuclei-ccf",
        "status": "violent",
	"size": "somewhat_large"
    },
    {
        "name": "Golden Dawn (GD)",
        "coordinates": [23.72838212529446, 37.99183465144859],
        "logo": "https://upload.wikimedia.org/wikipedia/commons/1/17/Meandros_flag.svg",
        "article": "https://www.moderninsurgent.org/post/golden-dawn-gd",
        "status": "inactive",
	"size": "somewhat_large"
    },
    {
        "name": "Anarcho-Communist Combat Organisation (BOAK)",
        "coordinates": [39.700432007023274, 47.234783961333186],
        "logo": "https://upload.wikimedia.org/wikipedia/commons/d/dd/Flag_of_the_Combat_Organization_of_Anarcho-Communists.svg",
        "article": "https://www.moderninsurgent.org/post/anarcho-communist-combat-organisation-boak",
        "status": "violent",
	"size": "somewhat_small"
    },
    {
        "name": "National Resistance Front of Afghanistan (NRF)",
        "coordinates": [69.78897746209888, 35.41120621737727],
        "logo": "https://upload.wikimedia.org/wikipedia/commons/f/fb/Flag_of_the_National_Resistance_Front_of_Afghanistan.svg",
        "article": "https://www.moderninsurgent.org/post/national-resistance-front-of-afghanistan-nrf",
        "status": "violent",
	"size": "somewhat_small"
    },
    {
        "name": "Communist Party of Burma (CPB)",
        "coordinates": [98.81891086223732, 22.45818912058623],
        "logo": "https://upload.wikimedia.org/wikipedia/commons/8/89/Communist_Party_of_Burma_flag_%281939-1946%29_and_%281946-1970%29.svg",
        "article": "https://www.moderninsurgent.org/post/communist-party-of-burma-cpb",
        "status": "violent",
	"size": "somewhat_large"
    },
    {
        "name": "Abu Sayyaf (Islamic State - East Asia Province)",
        "coordinates": [124.32535602802359, 7.421891678531082],
        "logo": "https://upload.wikimedia.org/wikipedia/commons/8/86/Islamic_State_-_East_Asia_Province.svg",
        "article": "https://www.moderninsurgent.org/post/abu-sayyaf-islamic-state-east-asia-province",
        "status": "violent",
	"size": "large"
    },
    {
        "name": "Islamic State Khorasan Province (ISK)",
        "coordinates": [67.46457566487769, 31.25960075133995],
        "logo": "https://upload.wikimedia.org/wikipedia/commons/thumb/e/e7/Islamic_State_–_Khurasan_Province.svg/1920px-Islamic_State_–_Khurasan_Province.svg.png",
        "article": "https://www.moderninsurgent.org/post/islamic-state-khorasan-province-isk",
        "status": "violent",
	"size": "large"
    },
    {
        "name": "Honker Union",
        "coordinates": [116.40918352663262, 39.90174298431158],
        "logo": "https://upload.wikimedia.org/wikipedia/en/1/16/Honker_Union_logo_%282%29.jpg",
        "article": "https://www.moderninsurgent.org/post/honker-union",
        "status": "hacktivist",
	"size": "somewhat_large"
    },
    {
        "name": "Patani United Liberation Organisation (PULO)",
        "coordinates": [101.4195905614785, 6.7237689259617195],
        "logo": "https://upload.wikimedia.org/wikipedia/commons/e/e5/Flag_of_Pattani.svg",
        "article": "https://www.moderninsurgent.org/post/patani-united-liberation-organisation-pulo",
        "status": "violent",
	"size": "somewhat_large"
    },
    {
        "name": "Lion's Den",
        "coordinates": [35.24886204067009, 32.2212308506747],
        "logo": "https://static.wixstatic.com/media/c24061_df61ce16ca8f440ebb382925eff46a36~mv2.png/v1/fill/w_2000,h_2000,al_c,q_90/c24061_df61ce16ca8f440ebb382925eff46a36~mv2.webp",
        "article": "https://www.moderninsurgent.org/post/lions-den",
        "status": "violent",
	"size": "somewhat_small"
    },
    {
        "name": "Mujahideen Shura Council in the Environs of Jerusalem",
        "coordinates": [34.243250915271275, 31.28567159793135],
        "logo": "https://upload.wikimedia.org/wikipedia/commons/5/58/Islamic_State_flag.svg",
        "article": "https://www.moderninsurgent.org/post/mujahideen-shura-council-in-the-environs-of-jerusalem",
        "status": "inactive",
	"size": "somewhat_small"
    },
    {
        "name": "Ahrar al-Sharqiya",
        "coordinates": [37.07724159553206, 36.235314313193854],
        "logo": "https://upload.wikimedia.org/wikipedia/commons/1/14/Flag_of_the_Syrian_revolution.svg",
        "article": "https://www.moderninsurgent.org/post/ahrar-al-sharqiya-1",
        "status": "violent",
	"size": "somewhat_small"
    },
    {
        "name": "Popular Front for the Liberation of Palestine (PFLP)",
        "coordinates": [34.33285121724336, 31.38500261601969],
        "logo": "https://upload.wikimedia.org/wikipedia/en/9/92/Logo_of_PFLP.png",
        "article": "Popular Front for the Liberation of Palestine (PFLP)",
        "status": "violent",
	"size": "somewhat_small"
    },
    {
        "name": "Saraya Al-Mukhtar (SM)",
        "coordinates": [50.54228275786029, 26.031055000910946],
        "logo": "https://upload.wikimedia.org/wikipedia/en/e/ee/MukhtarBrigade.jpg",
        "article": "https://www.moderninsurgent.org/post/saraya-al-mukhtar",
        "status": "violent",
	"size": "very_small"
    },
    {
        "name": "Syriac Union Party (SUP)",
        "coordinates": [40.722057970128574, 36.05995313379969],
        "logo": "https://upload.wikimedia.org/wikipedia/en/f/fb/Syriac_Union_Party_%28Syria%29_logo.svg",
        "article": "https://www.moderninsurgent.org/post/syriac-union-party-sup-3",
        "status": "violent",
	"size": "very_small"
    },
    {
        "name": "Hamas",
        "coordinates": [34.46276117505538, 31.49837506420981],
        "logo": "https://upload.wikimedia.org/wikipedia/en/5/55/Emblem_of_Hamas.svg",
        "article": "https://www.moderninsurgent.org/post/hamas",
        "status": "violent",
	"size": "large"
    },
    {
        "name": "Islamic State (IS/ISIS/ISIL)",
        "coordinates": [40.65852421039664, 34.314413127964094],
        "logo": "https://upload.wikimedia.org/wikipedia/commons/5/58/Islamic_State_flag.svg",
        "article": "https://www.moderninsurgent.org/post/islamic-state-is-isis-isil",
        "status": "violent",
	"size": "large"
    },
    {
        "name": "Yemeni National Resistance Forces (NRF)",
        "coordinates": [42.979969010147485, 14.775197077390999],
        "logo": "https://upload.wikimedia.org/wikipedia/commons/f/fb/Flag_of_the_National_Resistance_Front_of_Afghanistan.svg",
        "article": "https://www.moderninsurgent.org/post/yemeni-national-resistance",
        "status": "violent",
	"size": "somewhat_large"
    },
    {
        "name": "Shabiha",
        "coordinates": [36.2756477178067, 33.508137518482535],
        "logo": "https://static.wixstatic.com/media/c24061_d18943ede6774ef0b638a212c6d1dc94~mv2.png",
        "article": "https://www.moderninsurgent.org/post/shabiha",
        "status": "violent",
	"size": "very_small"
    },
    {
        "name": "Izz al-Din al-Qassam Brigades (IQB)",
        "coordinates": [34.398051008340126, 31.43604397714877],
        "logo": "https://upload.wikimedia.org/wikipedia/commons/b/b3/Flag_of_Hamas.svg",
        "article": "https://www.moderninsurgent.org/post/izz-al-din-al-qassam-brigades",
        "status": "violent",
	"size": "somewhat_small"
    },
    {
        "name": "New Irish Republican Army (New IRA)",
        "coordinates": [-7.3093666730200955, 54.995783893628065],
        "logo": "https://upload.wikimedia.org/wikipedia/commons/e/ea/StarryPlough.svg",
        "article": "https://www.moderninsurgent.org/post/new-irish-republican-army-new-ira",
        "status": "violent",
	"size": "somewhat_small"
    },
    {
        "name": "Niger Delta Avengers (NDA)",
        "coordinates": [5.6845907045612885, 5.022348526565104],
        "logo": "https://static.wixstatic.com/media/c24061_afec774c708c47a3a3ac8b33170c836e~mv2.png",
        "article": "https://www.moderninsurgent.org/post/niger-delta-avengers-nda",
        "status": "violent",
	"size": "somewhat_small"
    },
    {
        "name": "Arrow Boys",
        "coordinates": [28.450763386643654, 4.993333532381286],
        "logo": "https://static.wixstatic.com/media/c24061_deef8b8a30b543af8ee2e9d9ebf350e1~mv2.png",
        "article": "https://www.moderninsurgent.org/post/arrow-boys",
        "status": "violent",
	"size": "very_small"
    },
    {
        "name": "Islamic State Mozambique (ISM)",
        "coordinates": [39.34310797534211, -12.429401088157013],
        "logo": "https://upload.wikimedia.org/wikipedia/commons/thumb/3/30/Flag_of_Jihad.svg/2880px-Flag_of_Jihad.svg.png",
        "article": "https://www.moderninsurgent.org/post/islamic-state-mozambique-ism",
        "status": "violent",
	"size": "large"
    },
    {
        "name": "Islamic State in the Greater Sahara (ISGS)",
        "coordinates": [0.24682253873071772, 14.949450703479792],
        "logo": "https://upload.wikimedia.org/wikipedia/commons/b/b0/Logo_of_ISGS.png",
        "article": "https://www.moderninsurgent.org/post/islamic-state-in-the-greater-sahara-isgs",
        "status": "violent",
	"size": "large"
    },
    {
        "name": "Islamic State West Africa Province (ISWAP)",
        "coordinates": [12.47628970773894, 11.430659177288518],
        "logo": "https://upload.wikimedia.org/wikipedia/en/1/17/ISIL_West_Africa.png",
        "article": "https://www.moderninsurgent.org/post/islamic-state-west-africa-province-iswap",
        "status": "violent",
	"size": "large"
    },
    {
        "name": "Islamic State in Libya (ISL)",
        "coordinates": [13.451042054919, 26.15784409949635],
        "logo": "https://upload.wikimedia.org/wikipedia/commons/a/aa/Islamic_State_–_Libya_Province.svg",
        "article": "https://www.moderninsurgent.org/post/islamic-state-in-libya-isl",
        "status": "violent",
	"size": "somewhat_large"
    },
    {
        "name": "Rapid Support Forces (RSF)",
        "coordinates": [32.55200075071057, 15.510952712812404],
        "logo": "https://upload.wikimedia.org/wikipedia/commons/9/94/Emblem_of_the_Rapid_Support_Forces.png",
        "article": "https://www.moderninsurgent.org/post/rapid-support-forces-rsf-1",
        "status": "violent",
	"size": "large"
    },
    {
        "name": "Boko Haram (JAS Faction)",
        "coordinates": [13.607831195739688, 13.592178224482462],
        "logo": "https://upload.wikimedia.org/wikipedia/en/2/2a/Boko_Haram_logo_%282002–15%29.png",
        "article": "https://www.moderninsurgent.org/post/boko-haram-jas-faction",
        "status": "violent",
	"size": "large"
    },
    {
        "name": "Janjaweed",
        "coordinates": [23.573855547084122, 14.196007116943251],
        "logo": "https://static.wixstatic.com/media/c24061_fb937c71d45f4a8190e4446f3cc164df~mv2.jpg",
        "article": "https://www.moderninsurgent.org/post/janjaweed",
        "status": "inactive",
	"size": "somewhat_small"
    },
    {
        "name": "Mai-Mai Kata Katanga",
        "coordinates": [25.34371689922819, -8.80284761786212],
        "logo": "https://upload.wikimedia.org/wikipedia/commons/9/95/Flag_of_Katanga.svg",
        "article": "https://www.moderninsurgent.org/post/mai-mai-kata-katanga",
        "status": "violent",
	"size": "somewhat_small"
    },
    {
        "name": "Anti-Balaka Militants",
        "coordinates": [20.669225805721805, 5.758014213764477],
        "logo": "https://static.wixstatic.com/media/c24061_2583ce588cdb47c78a3851c2857857d2~mv2.png/v1/fill/w_784,h_522,al_c,q_90,usm_0.66_1.00_0.01,enc_auto/c24061_2583ce588cdb47c78a3851c2857857d2~mv2.png",
        "article": "https://www.moderninsurgent.org/post/anti-balaka-militants",
        "status": "violent",
	"size": "somewhat_small"
    },
    {
        "name": "Tubu (Teda) Militias",
        "coordinates": [19.577374607096274, 21.81004444037375],
        "logo": "https://upload.wikimedia.org/wikipedia/commons/9/95/Flag_of_the_Toubou_Front_for_the_Salvation_of_Libya.svg",
        "article": "https://www.moderninsurgent.org/post/tubu-militias",
        "status": "violent",
	"size": "somewhat_small"
    },
    {
        "name": "Afrikaner Weerstandsbeweging (AWB)",
        "coordinates": [26.632495347057553, -26.863796907120296],
        "logo": "https://upload.wikimedia.org/wikipedia/commons/6/60/Flag_of_the_Afrikaner-Weerstandsbeweging.svg",
        "article": "https://www.moderninsurgent.org/post/afrikaner-weerstandsbeweging-awb",
        "status": "violent",
	"size": "somewhat_small"
    },
    {
        "name": "Lord's Resistance Army (LRA)",
        "coordinates": [27.27910608688422, 5.187402650975248],
        "logo": "https://upload.wikimedia.org/wikipedia/commons/8/81/Flag_of_Lord%27s_Resistance_Army.svg",
        "article": "https://www.moderninsurgent.org/post/lords-resistance-army-lra",
        "status": "violent",
	"size": "somewhat_large"
    },
    {
        "name": "Jama'at Nasr al-Islam wal Muslimin (JNIM)",
        "coordinates": [-0.6339058571600243, 13.990747915879291],
        "logo": "https://upload.wikimedia.org/wikipedia/commons/3/30/Flag_of_Jihad.svg",
        "article": "https://www.moderninsurgent.org/post/_jnim",
        "status": "violent",
	"size": "large"
    },
    {
        "name": "Front for the Liberation of the Enclave of Cabinda (FLEC)",
        "coordinates": [12.283529236413486, -5.149608470869734],
        "logo": "https://upload.wikimedia.org/wikipedia/commons/6/6d/Flag_of_Cabinda_%28FLEC_propose%29.svg",
        "article": "https://www.moderninsurgent.org/post/front-for-the-liberation-of-the-enclave-of-cabinda-flec",
        "status": "violent",
	"size": "somewhat_large"
    },
    {
        "name": "Al Shabaab",
        "coordinates": [44.53080778970273, 3.3037261588735647],
        "logo": "https://upload.wikimedia.org/wikipedia/en/9/94/ShababLogo.png",
        "article": "https://www.moderninsurgent.org/post/al-shabaab",
        "status": "violent",
	"size": "large"
    },
    {
        "name": "Libyan National Army (LNA)",
        "coordinates": [23.94274904607924, 32.0662430699265],
        "logo": "https://upload.wikimedia.org/wikipedia/commons/7/70/Libyan_COA_used_by_Haftar.png",
        "article": "https://www.moderninsurgent.org/post/libyan-national-army-lna",
        "status": "violent",
	"size": "large"
    },
    {
        "name": "The Movement for the Emancipation of the Niger Delta (MEND)",
        "coordinates": [7.033625118156722, 4.693526252500253],
        "logo": "https://dailypost.ng/wp-content/uploads/2016/08/MEND-logo.jpg",
        "article": "https://en.wikipedia.org/wiki/Movement_for_the_Emancipation_of_the_Niger_Delta",
        "status": "violent",
	"size": "somewhat_small"
    },
    {
        "name": "Movement of Democratic Forces of Casamance (MFDC)",
        "coordinates": [-15.559563264919795, 12.74764274851825],
        "logo": "https://upload.wikimedia.org/wikipedia/commons/b/b9/Flag_of_Casamance.svg",
        "article": "https://www.moderninsurgent.org/post/movement-of-democratic-forces-of-casamance-mfdc",
        "status": "violent",
	"size": "somewhat_small"
    },
    {
        "name": "Ambazonia Defence Forces (ADF)",
        "coordinates": [10.343005790901444, 6.455393265722247],
        "logo": "https://upload.wikimedia.org/wikipedia/en/3/3e/Seal_of_the_Ambazonia_Defence_Forces.png",
        "article": "https://www.moderninsurgent.org/post/amazonia-defence-forces-adf",
        "status": "violent",
	"size": "somewhat_small"
    },
    {
        "name": "National Movement for the Liberation of Azawad (MNLA)",
        "coordinates": [-1.7292089289328174, 18.424136342122537],
        "logo": "https://upload.wikimedia.org/wikipedia/commons/5/50/MNLA_flag.svg",
        "article": "https://www.moderninsurgent.org/post/national-movement-for-the-liberation-of-azawad-mnla",
        "status": "violent",
	"size": "somewhat_large"
    },
    {
        "name": "Government of National Accord (GNA)",
        "coordinates": [13.194228532201747, 32.886755815834476],
        "logo": "https://upload.wikimedia.org/wikipedia/en/0/0f/Government_of_National_Accord_Seal.jpg",
        "article": "https://www.moderninsurgent.org/post/government-of-national-accord-gna",
        "status": "violent",
	"size": "large"
    },
    {
        "name": "M23 Rebels (March 23 Movement)",
        "coordinates": [29.213480649812535, -1.6537266529934471],
        "logo": "https://static.wixstatic.com/media/c24061_56d03195ba59416891991272218262f4~mv2.png/v1/fill/w_2560,h_1920,al_c,q_90/c24061_56d03195ba59416891991272218262f4~mv2.webp",
        "article": "https://www.moderninsurgent.org/post/m23-rebels-march-23-movement",
        "status": "violent",
	"size": "large"
    },
    {
        "name": "Tigray People’s Liberation Front (TPLF)",
        "coordinates": [38.35734691175865, 13.954916319110913],
        "logo": "https://upload.wikimedia.org/wikipedia/commons/b/ba/Emblem_Of_Tigray_People%27s_Liberation_Front.svg",
        "article": "https://www.moderninsurgent.org/post/tigray-people-s-liberation-front-tplf",
        "status": "violent",
	"size": "somewhat_large"
    },
    {
        "name": "Polisario Front (PF)",
        "coordinates": [-13.50982043099401, 24.56646238330759],
        "logo": "https://upload.wikimedia.org/wikipedia/en/8/8d/Seal_of_the_POLISARIO_Front.svg",
        "article": "https://www.moderninsurgent.org/post/polisario-front",
        "status": "violent",
	"size": "somewhat_large"
    },
    {
        "name": "Bolivarian Forces of Liberation (FBL/FPLN)",
        "coordinates": [-68.74992730558262, 7.19347189952461],
        "logo": "https://upload.wikimedia.org/wikipedia/en/5/59/Bolivarian_Forces_of_Liberation_logo.png",
        "article": "https://www.moderninsurgent.org/post/bolivarian-forces-of-liberation-fbl",
        "status": "violent",
	"size": "somewhat_small"
    },
    {
        "name": "Guacamaya",
        "coordinates": [-99.13677240728897, 19.42281245512314],
        "logo": "https://static.wixstatic.com/media/c24061_189996e63df54f3a8c5d34638519dd0a~mv2.jpeg",
        "article": "https://www.moderninsurgent.org/post/guacamaya",
        "status": "hacktivist",
	"size": "somewhat_large"
    },
    {
        "name": "Jamaat Al Muslimeen (JAM)",
        "coordinates": [-61.26907431453122, 10.411330856685296],
        "logo": "https://static.wixstatic.com/media/c24061_831a69d0992b45b5944f93cce0321227~mv2.png/v1/fill/w_860,h_520,al_c,q_90,usm_0.66_1.00_0.01,enc_auto/c24061_831a69d0992b45b5944f93cce0321227~mv2.png",
        "article": "https://www.moderninsurgent.org/post/jamaat-al-muslimeen-jam",
        "status": "inactive",
	"size": "very_small"
    },
    {
        "name": "Shining Path",
        "coordinates": [-75.2041386430362, -12.05969424176737],
        "logo": "https://upload.wikimedia.org/wikipedia/commons/6/65/Emblem_of_the_PCP-Shining_Path.svg",
        "article": "https://www.moderninsurgent.org/post/shining-path",
        "status": "inactive",
	"size": "somewhat_small"
    },
    {
        "name": "The South is my Country",
        "coordinates": [-52.245557819895645, -28.89506011726198],
        "logo": "https://upload.wikimedia.org/wikipedia/commons/1/1c/Bandeira_do_movimento_O_Sul_É_o_Meu_Pa%C3%ADs.svg",
        "article": "https://www.moderninsurgent.org/post/the-south-is-my-country",
        "status": "nonviolent",
	"size": "large"
    },
    {
        "name": "Weichan Auka Mapu (WAM)",
        "coordinates": [-72.23714766021443, -37.509961754043424],
        "logo": "https://upload.wikimedia.org/wikipedia/commons/e/e8/Logo_Weichan_Auka_Mapu.jpg",
        "article": "https://www.moderninsurgent.org/post/weichan-auka-mapu-wam",
        "status": "violent",
	"size": "somewhat_small"
    },
    {
        "name": "Coordinadora Arauco-Malleco (CAM)",
        "coordinates": [-72.56549712145008, -39.96156795215755],
        "logo": "https://upload.wikimedia.org/wikipedia/commons/6/67/Logo_de_la_CAM.svg",
        "article": "https://www.moderninsurgent.org/post/coordinadora-arauco-malleco-cam",
        "status": "violent",
	"size": "somewhat_small"
    },
    {
        "name": "National Liberation Army (ELN)",
        "coordinates": [-73.11226938051533, 5.594543318648318],
        "logo": "https://upload.wikimedia.org/wikipedia/en/e/e0/Ejército_de_Liberación_Nacional_%28Colombia%29_%28logo%29.png",
        "article": "https://www.moderninsurgent.org/post/national-liberation-army-eln",
        "status": "violent",
	"size": "large"
    },
    {
        "name": "Paraguayan People’s Army (EPP)",
        "coordinates": [-56.585772080734905, -23.04260686965817],
        "logo": "https://upload.wikimedia.org/wikipedia/commons/c/c6/Emblema_del_Ejército_del_Pueblo_Paraguayo.svg",
        "article": "https://www.moderninsurgent.org/post/paraguayan-people-s-army-epp",
        "status": "violent",
	"size": "somewhat_small"
    },
    {
        "name": "Confederation of Indigenous Nationalities of Ecuador (CONAIE)",
        "coordinates": [-78.46557415559349, -0.18247369140591904],
        "logo": "http://www.fanshop-online.de/images/e/ec_indg1.gif",
        "article": "https://www.moderninsurgent.org/post/confederation-of-indigenous-nationalities-of-ecuador-conaie",
        "status": "nonviolent",
	"size": "somewhat_small"
    },
    {
        "name": "Andahuaylazo Etnocaceritas",
        "coordinates": [-73.37710496475883, -13.658695425009961],
        "logo": "https://upload.wikimedia.org/wikipedia/commons/thumb/7/76/Flag_of_the_Ethnocacerist_Movement_%28Qullasuyu%29.svg/2880px-Flag_of_the_Ethnocacerist_Movement_%28Qullasuyu%29.svg.png",
        "article": "https://www.moderninsurgent.org/post/andahuaylazo-etnocaceritas",
        "status": "inactive",
	"size": "very_small"
    },
    {
        "name": "M-19 Guerrillas (19th of April Movement)",
        "coordinates": [-76.80890834347665, 2.440689137485687],
        "logo": "https://upload.wikimedia.org/wikipedia/commons/b/ba/Flag_of_M-19.svg",
        "article": "https://www.moderninsurgent.org/post/_m-19",
        "status": "nonviolent",
	"size": "somewhat_large"
    },
    {
        "name": "Blockade Australia",
        "coordinates": [151.21508096038986, -33.87620259806041],
        "logo": "https://upload.wikimedia.org/wikipedia/commons/a/a6/LogoBlockadeAustralia-600.webp",
        "article": "https://www.youtube.com/watch?v=8abpBXfJznM",
        "status": "nonviolent",
	"size": "somewhat_small"
    },
    {
        "name": "Hells Angels (HAMC)",
        "coordinates": [-117.40050888059686, 34.06800867366421],
        "logo": "https://upload.wikimedia.org/wikipedia/en/5/5d/Hells_Angels_logo.jpg",
        "article": "https://www.moderninsurgent.org/post/hells-angels-hamc",
        "status": "violent",
	"size": "somewhat_small"
    },
    {
        "name": "Atomwaffen Division (AWD)",
        "coordinates": [-82.45293167708621, 27.948268819683406],
        "logo": "https://upload.wikimedia.org/wikipedia/commons/1/17/Flag_of_Atomwaffen_Division.svg",
        "article": "https://www.moderninsurgent.org/post/atomwaffen-division-awd",
        "status": "violent",
	"size": "somewhat_large"
    },
    {
        "name": "Sea Shepherd Conservation Society (SSCS)",
        "coordinates": [-122.81906464279045, 48.58627616685863],
        "logo": "https://upload.wikimedia.org/wikipedia/commons/5/52/Sea_Shepherd_Conservation_Society_LOGO.png",
        "article": "https://www.moderninsurgent.org/post/sea-shepherd-conservation-society-sscs",
        "status": "violent",
	"size": "somewhat_small"
    },
    {
        "name": "Atlanta Resistance Medics (ARM)",
        "coordinates": [-84.38902862008734, 33.74790478509773],
        "logo": "http://www.atlantaresistancemedics.org/wp-content/uploads/2020/08/arm-logo-rev.png",
        "article": "https://www.moderninsurgent.org/post/atlanta-resistance-medics-arm",
        "status": "nonviolent",
	"size": "very_small"
    },
    {
        "name": "John Brown Gun Club",
        "coordinates": [-94.7164028152403, 39.00836368836745],
        "logo": "https://upload.wikimedia.org/wikipedia/en/9/9d/Puget_Sound_John_Brown_Gun_Club_logo.png",
        "article": "https://www.moderninsurgent.org/post/john-brown-gun-club",
        "status": "nonviolent",
	"size": "somewhat_small"
    },
    {
        "name": "Nation of Islam (NOI)",
        "coordinates": [-87.58538590527822, 41.760904656518356],
        "logo": "https://upload.wikimedia.org/wikipedia/commons/1/12/Logo_of_the_Nation_of_Islam.svg",
        "article": "https://www.moderninsurgent.org/post/nation-of-islam-noi",
        "status": "nonviolent",
	"size": "somewhat_small"
    },
    {
        "name": "Defend the Atlanta Forest (DTF)",
        "coordinates": [-84.33319146709506, 33.69213081926953],
        "logo": "https://i0.wp.com/defendtheatlantaforest.org/wp-content/uploads/2022/07/photo_2021-07-12-15.07.28.jpeg",
        "article": "https://www.moderninsurgent.org/post/nation-of-islam-noi",
        "status": "violent",
	"size": "somewhat_small"
    },
    {
        "name": "American Indian Movement (AIM)",
        "coordinates": [-93.26782919838531, 44.97617078033873],
        "logo": "https://upload.wikimedia.org/wikipedia/commons/3/3e/Flag_of_the_American_Indian_Movement_V2.svg",
        "article": "https://www.moderninsurgent.org/post/american-indian-movement-aim",
        "status": "nonviolent",
	"size": "somewhat_small"
    },
    {
        "name": "Redneck Revolt",
        "coordinates": [-94.77149083801248, 39.14569479134972],
        "logo": "https://upload.wikimedia.org/wikipedia/en/a/af/Redneck_Revolt_logo.jpg",
        "article": "https://www.moderninsurgent.org/post/redneck-revolt",
        "status": "nonviolent",
	"size": "somewhat_small"
    },
    {
        "name": "Oath Keepers",
        "coordinates": [-96.79845597641764, 32.77573711078738],
        "logo": "https://upload.wikimedia.org/wikipedia/commons/0/02/Oath_Keepers_logo.svg",
        "article": "https://www.moderninsurgent.org/post/oath-keepers",
        "status": "violent",
	"size": "somewhat_large"
    },
    {
        "name": "National Socialist Movement",
        "coordinates": [-93.08899533792774, 44.951783794799425],
        "logo": "https://upload.wikimedia.org/wikipedia/commons/e/e3/Flag_of_National_Socialist_Movement_%28United_States%29.svg",
        "article": "https://www.moderninsurgent.org/post/national-socialist-movement",
        "status": "violent",
	"size": "somewhat_large"
    },
    {
        "name": "Crips",
        "coordinates": [-118.21753785351022, 33.89137922932666],
        "logo": "https://upload.wikimedia.org/wikipedia/commons/f/f3/Crip_handsign.gif",
        "article": "https://www.moderninsurgent.org/post/crips",
        "status": "violent",
	"size": "somewhat_large"
    },
    {
        "name": "Friends Stand United (FSU)",
        "coordinates": [-71.05911698781075, 42.3581878784834],
        "logo": "https://static.wixstatic.com/media/c24061_fec0e37f95ad48e9816986308897316f~mv2.jpeg",
        "article": "https://www.moderninsurgent.org/post/friends-stand-united-fsu",
        "status": "violent",
	"size": "somewhat_small"
    },
    {
        "name": "Alpha 66 (A66)",
        "coordinates": [-80.22753271063829, 25.766121605442226],
        "logo": "https://upload.wikimedia.org/wikipedia/commons/5/53/Flag_of_Alpha_66.svg",
        "article": "https://www.moderninsurgent.org/post/alpha-66-a66",
        "status": "inactive",
	"size": "somewhat_small"
    },
    {
        "name": "Boogaloo Movement",
        "coordinates": [-77.19450938389285, 39.01622040640683],
        "logo": "https://upload.wikimedia.org/wikipedia/commons/e/ea/Boogaloo_flag.svg",
        "article": "https://www.moderninsurgent.org/post/boogaloo-movement",
        "status": "violent",
	"size": "somewhat_large"
    },
    {
        "name": "Patriot Front",
        "coordinates": [-96.79748520804431, 32.77495892978301],
        "logo": "https://upload.wikimedia.org/wikipedia/commons/9/91/Flag_of_Patriot_Front.svg",
        "article": "https://www.moderninsurgent.org/post/patriot-front",
        "status": "nonviolent",
	"size": "somewhat_large"
    },
    {
        "name": "Brown Berets (Los Boinas Cafés)",
        "coordinates": [-121.76296672187799, 36.91520160562796],
        "logo": "https://upload.wikimedia.org/wikipedia/en/1/11/Brown_Beret_logo.png",
        "article": "https://www.moderninsurgent.org/post/brown-berets-los-boinas-cafés",
        "status": "nonviolent",
	"size": "somewhat_small"
    },
    {
        "name": "Farabundo Martí National Liberation Front (FMLN)",
        "coordinates": [-89.21705495886101, 13.687709352880391],
        "logo": "https://upload.wikimedia.org/wikipedia/commons/b/ba/Bandera_-_Frente_Farabundo_Mart%C3%AD_para_la_Liberación_Nacional.svg",
        "article": "https://www.moderninsurgent.org/post/farabundo-mart%C3%AD-national-liberation-front-fmln",
        "status": "nonviolent",
	"size": "somewhat_small"
    },
    {
        "name": "Zapatista Army of National Liberation (EZLN)",
        "coordinates": [-92.64101186044633, 16.729877773444922],
        "logo": "https://upload.wikimedia.org/wikipedia/commons/b/b4/Ejército_Zapatista_de_Liberación_Nacional%2C_Flag.svg",
        "article": "https://www.moderninsurgent.org/post/zapatista-army-of-national-liberation-ezln-1",
        "status": "nonviolent",
	"size": "large"
    },
    {
        "name": "Real Ulster Freedom Fighters (Real UFF)",
        "coordinates": [-5.667434176582421, 54.649501719344904],
        "logo": "https://upload.wikimedia.org/wikipedia/commons/b/bc/Flag_of_the_Ulster_Freedom_Fighters.svg",
        "article": "https://www.moderninsurgent.org/post/the-real-ulster-freedom-fighters-real-uff",
        "status": "violent",
	"size": "somewhat_small"
    },
    {
        "name": "Ulster Defence Association (UDA)",
        "coordinates": [-5.931964648357664, 54.67254017596299],
        "logo": "https://upload.wikimedia.org/wikipedia/en/9/90/Emblem_of_the_Ulster_Defence_Association.svg",
        "article": "https://www.moderninsurgent.org/post/ulster-defence-association-uda",
        "status": "nonviolent",
	"size": "somewhat_small"
    },
    {
        "name": "Army of the Men of the Naqshbandi Order (JRTN)",
        "coordinates": [44.366858447067294, 33.311424771205836],
        "logo": "https://upload.wikimedia.org/wikipedia/en/a/a4/Logo_of_the_Army_of_the_Men_of_the_Naqshbandi_Order.png",
        "article": "https://www.moderninsurgent.org/post/army-of-the-men-of-the-nashqbandi-order-jrtn",
        "status": "violent",
	"size": "somewhat_large"
    },
    {
        "name": "Russian Volunteer Corps (RDK)",
        "coordinates": [36.59741495179904, 50.596810489351306],
        "logo": "https://upload.wikimedia.org/wikipedia/commons/4/4a/Flag_of_the_Russian_Volunteer_Corps.svg",
        "article": "https://www.moderninsurgent.org/post/russian-volunteer-corps-rdk",
        "status": "violent",
	"size": "somewhat_small"
    },
    {
        "name": "Al-Qaeda in Kurdistan (Kurdistan Brigades)",
        "coordinates": [44.38287380539661, 35.46683976730635],
        "logo": "https://upload.wikimedia.org/wikipedia/commons/2/26/Flag_of_al-Qaeda%27s_Kurdish_Brigades.jpg",
        "article": "https://www.moderninsurgent.org/post/al-qaeda-in-kurdistan-kurdistan-brigades",
        "status": "violent",
	"size": "somewhat_small"
    },
    {
        "name": "Jewish Defence League (JDL)",
        "coordinates": [-74.00445330213388, 40.71159438389555],
        "logo": "https://upload.wikimedia.org/wikipedia/en/2/29/Star_and_Fist_Logo.png",
        "article": "https://www.moderninsurgent.org/post/jewish-defence-league-jdl",
        "status": "violent",
	"size": "somewhat_small"
    },
    {
        "name": "Earth Liberation Front (ELF)",
        "coordinates": [-0.13573926979788378, 50.82270271122298],
        "logo": "https://upload.wikimedia.org/wikipedia/commons/b/bb/Earthfirstmonkeywrench.png",
        "article": "https://www.moderninsurgent.org/post/earth-liberation-front-elf",
        "status": "inactive",
	"size": "somewhat_small"
    },
    {
        "name": "Freedom of Russia Legion (FRL)",
        "coordinates": [36.42758550485181, 50.32992584021699],
        "logo": "https://upload.wikimedia.org/wikipedia/commons/d/d1/Patch_of_the_Ukrainian_Free_Russian_Legion.svg",
        "article": "https://www.moderninsurgent.org/post/freedom-of-russia-legion",
        "status": "violent",
	"size": "somewhat_small"
    },
    {
        "name": "Taliban",
        "coordinates": [69.20773434494204, 34.55453652332092],
        "logo": "https://upload.wikimedia.org/wikipedia/commons/5/5c/Flag_of_the_Taliban.svg",
        "article": "https://www.moderninsurgent.org/post/taliban",
        "status": "violent",
	"size": "large"
    },
    {
        "name": "Blood And Honour",
        "coordinates": [0.7424751222441449, 51.21691407010628],
        "logo": "https://upload.wikimedia.org/wikipedia/en/1/12/BloodandHonourlogo.png",
        "article": "https://www.moderninsurgent.org/post/blood-and-honour",
        "status": "violent",
	"size": "somewhat_small"
    },
    {
        "name": "Jalisco New Generation Cartel (CJNG)",
        "coordinates": [-103.35034477004459, 20.65889352168515],
        "logo": "https://upload.wikimedia.org/wikipedia/commons/b/bb/Cártel_de_Jalisco_Nueva_Generación_logo_3.png",
        "article": "https://www.moderninsurgent.org/post/jalisco-new-generation-cartel-cjng",
        "status": "violent",
	"size": "somewhat_large"
    },
    {
        "name": "SADAT International Defense Consultancy",
        "coordinates": [28.66749326969694, 40.97498027832715],
        "logo": "https://static.wixstatic.com/media/f9ef56_5553b50aed8149809ad431fff36e2edb~mv2.jpeg",
        "article": "https://www.moderninsurgent.org/post/sadat",
        "status": "violent",
	"size": "somewhat_large"
    },
    {
        "name": "Gulen Movement",
        "coordinates": [27.140128109165694, 38.4224014077387],
        "logo": "https://www.gulenmovement.com/sds/wp-content/uploads/2016/03/logo_gm.png",
        "article": "https://www.moderninsurgent.org/post/gulen-movement",
        "status": "nonviolent",
	"size": "somewhat_small"
    },
    {
        "name": "National Socialism Association (NSA)",
        "coordinates": [121.5542125500979, 25.048626708039034],
        "logo": "https://upload.wikimedia.org/wikipedia/en/b/b4/National_Socialism_Association_logo.png",
        "article": "https://www.moderninsurgent.org/post/national-socialism-association-nsa",
        "status": "inactive",
	"size": "very_small"
    },
    {
        "name": "Abu Hafs al-Masri Brigades",
        "coordinates": [32.120340398620826, 29.43965974952733],
        "logo": "https://upload.wikimedia.org/wikipedia/commons/3/30/Flag_of_Jihad.svg",
        "article": "https://www.moderninsurgent.org/post/abu-hafs-al-masri-brigades",
        "status": "inactive",
	"size": "very_small"
    },
    {
        "name": "Popular Front for the Liberation of Libya (PFLL)",
        "coordinates": [16.570722678383653, 31.19083924871289],
        "logo": "https://upload.wikimedia.org/wikipedia/en/c/ca/Logo_of_the_Popular_Front_for_the_Liberation_of_Libya.png",
        "article": "https://www.moderninsurgent.org/post/popular-front-for-the-liberation-of-libya-pfll",
        "status": "violent",
	"size": "somewhat_small"
    },
    {
        "name": "The Groypers (America First)",
        "coordinates": [-87.87512516106833, 41.82695302685846],
        "logo": "https://upload.wikimedia.org/wikipedia/en/f/ff/Groyper_cartoon.png",
        "article": "https://www.moderninsurgent.org/post/the-groypers-america-first",
        "status": "nonviolent",
	"size": "somewhat_small"
    },
    {
        "name": "Hadhramaut Tribal Alliance",
        "coordinates": [49.3643862888174, 16.930478963047857],
        "logo": "https://upload.wikimedia.org/wikipedia/commons/d/d9/Flag_of_the_Hadhramout_Tribes_Confederacy.svg",
        "article": "https://www.moderninsurgent.org/post/hadhramaut-tribal-alliance",
        "status": "nonviolent",
	"size": "somewhat_small"
    },
    {
        "name": "The Aryan Brotherhood",
        "coordinates": [-122.48985793216211, 37.938620610441234],
        "logo": "https://upload.wikimedia.org/wikipedia/commons/a/ab/Aryan_Brotherhood_hate_symbol.svg",
        "article": "https://www.moderninsurgent.org/post/the-aryan-brotherhood",
        "status": "violent",
	"size": "somewhat_large"
    },
    {
        "name": "East Turkestan Islamic Movement (ETIM)",
        "coordinates": [75.95770130200883, 39.35598803849818],
        "logo": "https://upload.wikimedia.org/wikipedia/commons/b/b7/Flag_of_Turkistan_Islamic_Party.svg",
        "article": "https://www.moderninsurgent.org/post/east-turkestan-islamic-movement-etim",
        "status": "violent",
	"size": "somewhat_large"
    },
    {
        "name": "Red Dragons",
        "coordinates": [9.50761152608694, 5.691907566692746],
        "logo": "https://upload.wikimedia.org/wikipedia/commons/d/d9/Flag_of_the_Federal_Republic_of_Southern_Cameroons.svg",
        "article": "https://www.moderninsurgent.org/post/red-dragons",
        "status": "violent",
	"size": "somewhat_small"
    },
    {
        "name": "Aum Shinrikyo / Aleph",
        "coordinates": [139.7689353200902, 35.66735100088748],
        "logo": "https://upload.wikimedia.org/wikipedia/commons/b/b6/Aum_symbol.svg",
        "article": "https://www.moderninsurgent.org/post/aum-shinrikyo-aleph",
        "status": "violent",
	"size": "very_small"
    },
    {
        "name": "Ansaru",
        "coordinates": [8.594200500951551, 11.997248006552033],
        "logo": "https://upload.wikimedia.org/wikipedia/commons/9/93/Flag_of_Ansaru.svg",
        "article": "https://www.moderninsurgent.org/post/ansaru",
        "status": "violent",
	"size": "somewhat_small"
    },
    {
        "name": "Westboro Baptist Church",
        "coordinates": [-95.72145257442209, 39.04530065197461],
        "logo": "https://static.wixstatic.com/media/f9ef56_1ccb326075ab450ea3b096b20a8f72f8~mv2.jpg",
        "article": "hhttps://www.moderninsurgent.org/post/westboro-baptist-church",
        "status": "violent",
	"size": "very_small"
    },
    {
        "name": "Serb Volunteer Guard (Arkan's Tigers)",
        "coordinates": [17.193461032740245, 44.77100741000253],
        "logo": "https://upload.wikimedia.org/wikipedia/commons/thumb/c/c7/SPP_SrbDobGarda.svg/1280px-SPP_SrbDobGarda.svg.png",
        "article": "https://www.moderninsurgent.org/post/serb-volunteer-guard-arkan-s-tigers",
        "status": "inactive",
	"size": "somewhat_small"
    },
    {
        "name": "Tiger Forces (Syrian 25th Special Mission Forces Division)",
        "coordinates": [36.2777420950089, 33.51288713398022],
        "logo": "https://upload.wikimedia.org/wikipedia/commons/1/1e/Syrian_commando.png",
        "article": "https://www.moderninsurgent.org/post/tiger-forces",
        "status": "violent",
	"size": "somewhat_small"
    },
    {
        "name": "Colectivos",
        "coordinates": [-66.90205558797237, 10.475101490392706],
        "logo": "https://static.wixstatic.com/media/c24061_8d657475d000493ea89935b6e2a6a0d8~mv2.jpg",
        "article": "https://www.moderninsurgent.org/post/colectivos",
        "status": "violent",
	"size": "somewhat_large"
    },
    {
        "name": "Indigenous People of Biafra (IPOB)",
        "coordinates": [7.028220933327804, 5.490780191496765],
        "logo": "https://upload.wikimedia.org/wikipedia/commons/8/82/Flag_of_Biafra.svg",
        "article": "https://www.moderninsurgent.org/post/indigenous-people-of-biafra",
        "status": "nonviolent",
	"size": "somewhat_large"
    },
    {
        "name": "Women's Protection Units (YPJ)",
        "coordinates": [38.36598998226012, 36.81385933159877],
        "logo": "https://upload.wikimedia.org/wikipedia/commons/a/a0/YPJ_Flag.svg",
        "article": "https://www.moderninsurgent.org/post/women-s-protection-units-ypj",
        "status": "violent",
	"size": "somewhat_small"
    },
    {
        "name": "Sun Yee On (New Righteousness & Peace Commercial and Industrial Guild)",
        "coordinates": [114.16959630703187, 22.30690970512326],
        "logo": "https://static.wixstatic.com/media/c24061_37e2730d35804be8bfb334ad580c5ebc~mv2.webp",
        "article": "https://www.moderninsurgent.org/post/sun-yee-on",
        "status": "violent",
	"size": "somewhat_large"
    },
    {
        "name": "Antagonic Nuclei of the New Urban Guerrilla (NANGU)",
        "coordinates": [-70.66454165536592, -33.45404011803831],
        "logo": "https://upload.wikimedia.org/wikipedia/commons/8/8d/Logo_de_las_NANGU.svg",
        "article": "https://www.moderninsurgent.org/post/antagonic-nuclei-of-the-new-urban-guerrilla-nangu",
        "status": "violent",
	"size": "somewhat_small"
    },
    {
        "name": "Eastern Security Network (ESN)",
        "coordinates": [7.1780890827592225, 5.586716849925761],
        "logo": "https://upload.wikimedia.org/wikipedia/en/0/0a/Flag_of_the_Eastern_Security_Network.png",
        "article": "https://www.moderninsurgent.org/post/eastern-security-network-esn",
        "status": "violent",
	"size": "somewhat_small"
    },
    {
        "name": "Indigenous Revolutionary Armed Forces of the Pacific (FARIP)",
        "coordinates": [-76.7525212558257, 5.2016061193954615],
        "logo": "https://static.wixstatic.com/media/c24061_6f37202e78244cdc8c521f1396351bb7~mv2.png",
        "article": "https://www.moderninsurgent.org/post/indigenous-revolutionary-armed-forces-of-the-pacific-farip",
        "status": "inactive",
	"size": "very_small"
    },
    {
        "name": "Sandinista National Liberation Front (FSLN)",
        "coordinates": [-86.23654969903214, 12.115016615603492],
        "logo": "https://upload.wikimedia.org/wikipedia/commons/e/ec/Flag_of_the_FSLN.svg",
        "article": "https://www.moderninsurgent.org/post/sandinista-national-liberation-front-fsln",
        "status": "nonviolent",
	"size": "somewhat_large"
    },
    {
        "name": "Resistencia Mapuche Lavkenche (RML)",
        "coordinates": [-72.20679763438017, -38.516161680342876],
        "logo": "https://i0.wp.com/lazarzamora.cl/wp-content/uploads/2023/04/png_20230412_100431_0000.png?resize=735%2C400&ssl=1",
        "article": "https://www.moderninsurgent.org/post/resistencia-mapuche-lavkenche-rml",
        "status": "violent",
	"size": "very_small"
    },
    {
        "name": "Continuity IRA (CIRA)",
        "coordinates": [-7.309071230589276, 54.99750220116684],
        "logo": "https://static.wixstatic.com/media/9b81ac_cc99cdc8f3404bbbbcb3036d9c623663~mv2.jpg",
        "article": "https://www.moderninsurgent.org/post/continuity-ira-cira",
        "status": "violent",
	"size": "somewhat_small"
    },
    {
        "name": "Moro Islamic Liberation Front (MILF)",
        "coordinates": [125.60761622853764, 7.07084140519643],
        "logo": "https://upload.wikimedia.org/wikipedia/commons/e/e9/Flag_of_the_Moro_Islamic_Liberation_Front.svg",
        "article": "https://www.moderninsurgent.org/post/moro-islamic-liberation-front-milf",
        "status": "nonviolent",
	"size": "somewhat_large"
    },
    {
        "name": "Basij",
        "coordinates": [51.379138666959776, 35.68501361449995],
        "logo": "https://upload.wikimedia.org/wikipedia/commons/7/7a/Flag_of_Basij.svg",
        "article": "https://www.moderninsurgent.org/post/basij",
        "status": "violent",
	"size": "somewhat_small"
    },
    {
        "name": "Liwa al-Quds",
        "coordinates": [37.25608049358673, 36.18775812529544],
        "logo": "https://upload.wikimedia.org/wikipedia/commons/8/80/Emblem_of_Liwa_Al-Quds.svg",
        "article": "https://www.moderninsurgent.org/post/liwa-al-quds",
        "status": "violent",
	"size": "somewhat_small"
    },
    {
        "name": "Falun Gong (法轮功)",
        "coordinates": [-74.66803470982438, 41.434750819831756],
        "logo": "https://upload.wikimedia.org/wikipedia/commons/d/db/Falun_Gong_Logo.svg",
        "article": "https://www.moderninsurgent.org/post/falun-gong-法轮功",
        "status": "nonviolent",
	"size": "somewhat_small"
    },
    {
        "name": "The Coordination of Azawad Movements (CMA)",
        "coordinates": [4.185109909628669, 19.15964301374934],
        "logo": "https://upload.wikimedia.org/wikipedia/commons/5/5e/CMADrapeau.svg",
        "article": "https://www.moderninsurgent.org/post/the-coordination-of-azawad-movements-cma",
        "status": "violent",
	"size": "large"
    },
    {
        "name": "Fatah",
        "coordinates": [35.2033069054737, 31.903706016128616],
        "logo": "https://static.wixstatic.com/media/59184a_0ce1646837b4432eb63b64b7b2cbb620~mv2.png",
        "article": "https://www.moderninsurgent.org/post/fatah",
        "status": "nonviolent",
	"size": "somewhat_large"
    },
    {
        "name": "English Defense League (EDL)",
        "coordinates": [-0.41883834473694886, 51.878066075745686],
        "logo": "https://upload.wikimedia.org/wikipedia/en/e/e4/EDL_English_Defence_League_logo.png",
        "article": "https://www.moderninsurgent.org/post/english-defense-league-edl",
        "status": "nonviolent",
	"size": "somewhat_small"
    },
    {
        "name": "Indian Posse",
        "coordinates": [-97.1343111092226, 49.89614518253267],
        "logo": "https://static.wixstatic.com/media/2e7e47_2257929d89c04d0c855daa18c6641015~mv2.jpg",
        "article": "https://www.moderninsurgent.org/post/indian-posse",
        "status": "violent",
	"size": "somewhat_small"
    },
    {
        "name": "Young Army Cadets National Movement (Yunarmiya)",
        "coordinates": [37.52691126007584, 55.7770058530607],
        "logo": "https://upload.wikimedia.org/wikipedia/en/4/4f/Yunarmiya.svg",
        "article": "https://www.moderninsurgent.org/post/young-army-cadets-national-movement-yunarmiya",
        "status": "nonviolent",
	"size": "very_small"
    },
    {
        "name": "Palestinian Islamic Jihad (PIJ)",
        "coordinates": [34.229984672043116, 31.266068217699086],
        "logo": "https://ecfr.eu/wp-content/uploads/IslamicJihadFlag_-_Wikimedia-1-1024xcenter-c-default.png",
        "article": "https://www.moderninsurgent.org/post/palestinian-islamic-jihad-pij",
        "status": "violent",
	"size": "somewhat_large"
    },
    {
        "name": "Fatah al-Intifada",
        "coordinates": [35.29622214921255, 32.45978945416226],
        "logo": "https://static.wixstatic.com/media/c24061_77e73cb1f7fb4c7aba76dbdacc21449b~mv2.png",
        "article": "https://www.moderninsurgent.org/post/fatah-al-intifada",
        "status": "violent",
	"size": "somewhat_large"
    },
    {
        "name": "Sinjar Resistance Units (YBŞ)",
        "coordinates": [41.71832559007696, 36.37927817861575],
        "logo": "https://upload.wikimedia.org/wikipedia/commons/d/d7/Flag_of_YBŞ.svg",
        "article": "https://www.moderninsurgent.org/post/sinjar-resistance-units-ybş",
        "status": "violent",
	"size": "very_small"
    },
    {
        "name": "League of St. George",
        "coordinates": [-0.1478451332649688, 51.511621489483396],
        "logo": "https://upload.wikimedia.org/wikipedia/en/thumb/a/aa/League_of_Saint_George_emblem.svg/2880px-League_of_Saint_George_emblem.svg.png",
        "article": "https://www.moderninsurgent.org/post/league-of-st-george",
        "status": "nonviolent",
	"size": "somewhat_small"
    },
 {
        "name": "Malorussian Liberation Army (MLA)",
        "coordinates": [30.36106896293266, 59.93105226460434],
        "logo": "https://upload.wikimedia.org/wikipedia/commons/6/63/Flag_of_the_Malorussian_Liberation_Army.png",
        "article": "https://www.moderninsurgent.org/post/malorussian-liberation-army",
        "status": "violent",
	"size": "somewhat_small"
    },
 {
        "name": "Galician Resistance (GR)",
        "coordinates": [-8.544414413019224, 42.8767784532831],
        "logo": "https://static.wixstatic.com/media/2e7e47_278db9e5ea7b414197a78880d2c7ff77~mv2.jpeg/v1/fill/w_700,h_394,al_c,q_80,usm_0.66_1.00_0.01,enc_auto/2e7e47_278db9e5ea7b414197a78880d2c7ff77~mv2.jpeg",
        "article": "https://www.moderninsurgent.org/post/galician-resistance-rg",
        "status": "violent",
	"size": "very_small"
    },
 {
        "name": "Student Armed Force (SAF)",
        "coordinates": [95.23155354285815, 25.602926523492563],
        "logo": "https://upload.wikimedia.org/wikipedia/commons/thumb/3/31/Flag_of_Student_Armed_Force.svg/2880px-Flag_of_Student_Armed_Force.svg.png",
        "article": "https://www.moderninsurgent.org/post/student-armed-force-saf",
        "status": "violent",
	"size": "somewhat_small"
    },
 {
        "name": "Five Percent Nation (NGE)",
        "coordinates": [-73.94836138355514, 40.8090807115068],
        "logo": "https://upload.wikimedia.org/wikipedia/commons/b/bc/Five-Percent_%28NOGE%29_Symbol.png",
        "article": "https://www.moderninsurgent.org/post/five-percent-nation-nge",
        "status": "nonviolent",
	"size": "somewhat_small"
    },
 {
        "name": "The Base",
        "coordinates": [-120.69329148704668, 48.990755094702884],
        "logo": "https://upload.wikimedia.org/wikipedia/commons/thumb/2/24/Flag_of_The_Base.svg/2560px-Flag_of_The_Base.svg.png",
        "article": "https://www.moderninsurgent.org/post/the-base",
        "status": "violent",
	"size": "somewhat_large"
    },
 {
        "name": "Sandworm",
        "coordinates": [37.45451889059717, 55.88094368930411],
        "logo": "https://i0.wp.com/securityaffairs.com/wp-content/uploads/2014/10/sandworm.jpg?fit=600%2C166&ssl=1",
        "article": "https://www.moderninsurgent.org/post/sandworm",
        "status": "hacktivist",
	"size": "somewhat_small"
    },
 {
        "name": "Animal Liberation Front (ALF)",
        "coordinates": [-1.1534128867642413, 51.89979071771502],
        "logo": "https://upload.wikimedia.org/wikipedia/commons/thumb/1/18/ALF_logo.svg/1920px-ALF_logo.svg.png",
        "article": "https://www.moderninsurgent.org/post/animal-liberation-front",
        "status": "nonviolent",
	"size": "somewhat_small"
    },
 {
        "name": "Chin National Front",
        "coordinates": [93.93749218386907, 21.21872847537262],
        "logo": "https://upload.wikimedia.org/wikipedia/commons/thumb/e/e4/CNF_Hornbills.svg/1920px-CNF_Hornbills.svg.png",
        "article": "https://www.moderninsurgent.org/post/animal-liberation-front",
        "status": "nonviolent",
	"size": "somewhat_large"
    },
 {
        "name": "Ku Klux Klan (KKK)",
        "coordinates": [-87.03129915592525, 35.19962660715989],
        "logo": "https://upload.wikimedia.org/wikipedia/commons/thumb/c/c5/Flag_of_the_Ku_Klux_Klan.svg/2560px-Flag_of_the_Ku_Klux_Klan.svg.png",
        "article": "https://www.moderninsurgent.org/post/ku-klux-klan-kkk",
        "status": "violent",
	"size": "somewhat_large"
    },
 {
        "name": "Los Lobos",
        "coordinates": [-78.61465741587108, -0.9340809013308455],
        "logo": "https://static.wixstatic.com/media/2e7e47_c513c3058a474d90860875defb7a62f1~mv2.jpg/v1/fill/w_700,h_428,al_c,lg_1,q_80,enc_auto/2e7e47_c513c3058a474d90860875defb7a62f1~mv2.jpg",
        "article": "https://www.moderninsurgent.org/post/los-lobos",
        "status": "violent",
	"size": "somewhat_large"
    },
 {
        "name": "Guardians of the Forest",
        "coordinates": [-62.21566598886016, -3.465262307130994],
        "logo": "https://upload.wikimedia.org/wikipedia/commons/thumb/4/45/Bandeira_do_Maranhão.svg/2560px-Bandeira_do_Maranhão.svg.png",
        "article": "https://www.moderninsurgent.org/post/guardians-of-the-forest",
        "status": "violent",
	"size": "very_small"
    },
 {
        "name": "Indigenous Guard",
        "coordinates": [-76.61715337061239, 2.446210598678875],
        "logo": "https://static.wixstatic.com/media/f9ef56_b1385600d98b482bbb4ca7d1315790bc~mv2.jpeg",
        "article": "https://www.moderninsurgent.org/post/indigenous-guard",
        "status": "nonviolent",
	"size": "somewhat_small"
    },
{
    "name": "MINUSMA, Mali, & Wagner Group",
    "coordinates": [-6.945727500957374, 11.369267608324703],
    "logo": "https://static.wixstatic.com/media/c24061_c550f366e7344dc4b8d26985e269728e~mv2.png/v1/crop/x_41,y_261,w_994,h_545/fill/w_993,h_545,al_c,q_90,enc_auto/A330BAA6-8CE6-40DE-AF17-B55493FF8054_PNG.png",
    "article": "https://www.moderninsurgent.org/na-issue-1",
    "status": "nonviolent",
    "size": "somewhat_small",
    "shape": "square"
},
{
    "name": "Oath Keepers & Future of the US Militia Movement",
    "coordinates": [-116.89189917733555, 39.39347701728174],
    "logo": "https://static.wixstatic.com/media/c24061_b05836b92c8f42ebb9f4298956e91fe2~mv2.jpg/v1/crop/x_0,y_0,w_976,h_553/fill/w_976,h_551,al_c,q_85,enc_auto/74C78D72-B2B8-4802-8048-667C132FAA44.jpg",
    "article": "https://www.moderninsurgent.org/na-issue-2",
    "status": "nonviolent",
    "size": "somewhat_small",
    "shape": "square"
},
{
    "name": "Influence of the War in Ukraine on Georgia's Sovereignty",
    "coordinates": [44.802630713641086, 41.705052423194964],
    "logo": "https://static.wixstatic.com/media/c24061_8def263f089e4e3fa5d3d15fc2560b55~mv2.jpg/v1/crop/x_40,y_0,w_845,h_477/fill/w_845,h_477,al_c,q_85,enc_auto/Issue%203%20Thumbnail.jpg",
    "article": "https://www.moderninsurgent.org/na-issue-3",
    "status": "nonviolent",
    "size": "somewhat_small",
    "shape": "square"
},
{
    "name": "Mixing It Up - How Hybridization is Transforming Extremism in the Digital Era",
    "coordinates": [-77.00908268987286, 38.88989711758913],
    "logo": "https://static.wixstatic.com/media/c24061_00c5756fe85b4774817546ec6716f8ee~mv2.png/v1/crop/x_0,y_235,w_1080,h_609/fill/w_1079,h_609,al_c,q_90,enc_auto/240D326E-AD05-48B5-BFA2-B4E98995D00C_PNG.png",
    "article": "https://www.moderninsurgent.org/na-issue-4",
    "status": "nonviolent",
    "size": "somewhat_small",
    "shape": "square"
},
{
    "name": "The Future of the Sovereign Citizen Movement - Posse Comitatus to the Reichsbürger",
    "coordinates": [9.204456965968145, 48.494475874169595],
    "logo": "https://static.wixstatic.com/media/c24061_492e83638c9a4542bdaaeeee7e8e0bed~mv2.png/v1/crop/x_0,y_235,w_1080,h_609/fill/w_1079,h_609,al_c,q_90,enc_auto/N%26A%20Issue%205%20Thumbnail_PNG.png",
    "article": "https://www.moderninsurgent.org/na-issue-5",
    "status": "nonviolent",
    "size": "somewhat_small",
    "shape": "square"
},
{
    "name": "The Increasing Role of Cyber Conflict in the Kurdish Struggle",
    "coordinates": [44.0113930163286, 36.189170367534835],
    "logo": "https://static.wixstatic.com/media/c24061_5bc32b46e1654b299407af2b4384eac5~mv2.png/v1/crop/x_2,y_0,w_1196,h_675/fill/w_1196,h_675,al_c,q_90,enc_auto/Kurdish%20N%26A.png",
    "article": "https://www.moderninsurgent.org/n-a-issue-6",
    "status": "nonviolent",
    "size": "somewhat_small",
    "shape": "square"
},
{
    "name": "Hybrid Warfare and Unorthodox Tactics: A Case Study on Italy's Falange Armata",
    "coordinates": [15.080261091162686, 37.505935956215254],
    "logo": "https://static.wixstatic.com/media/c24061_80bd40ab8e324a0c9b6a4ce398149951~mv2.jpg/v1/crop/x_2,y_0,w_1361,h_768/fill/w_1361,h_768,al_c,q_85,enc_auto/Hybrid_Warfare.jpg",
    "article": "https://www.moderninsurgent.org/n-a-issue-7",
    "status": "nonviolent",
    "size": "somewhat_small",
    "shape": "square"
},
{
    "name": "No Friends but the Mountains: A Look at the SDF's Current Geopolitical Situation",
    "coordinates": [42.30347294787776, 36.250466700716906],
    "logo": "https://static.wixstatic.com/media/c24061_7850b9e3697846a9b3532d3771aaf4e7~mv2.jpg/v1/crop/x_2,y_0,w_1361,h_768/fill/w_1361,h_768,al_c,q_85,enc_auto/SDF.jpg",
    "article": "https://www.moderninsurgent.org/n-a-issue-8",
    "status": "nonviolent",
    "size": "somewhat_small",
    "shape": "square"
},
{
    "name": "In the Crosshairs: The PSNI Data Breach & the Threat of Dissident Republicanism",
    "coordinates": [-5.95238851976713, 54.5771261237448],
    "logo": "https://static.wixstatic.com/media/c24061_a4e418b58a5542269daf30b8080d8883~mv2.jpg/v1/crop/x_3,y_0,w_1914,h_1080/fill/w_1478,h_834,al_c,q_85,usm_0.66_1.00_0.01,enc_auto/PSNI%20Article%20Thumbnail.jpg",
    "article": "https://www.moderninsurgent.org/n-a-issue-9",
    "status": "nonviolent",
    "size": "somewhat_small",
    "shape": "square"
},
{
    "name": "The Renaissance of Kahanism in Israel",
    "coordinates": [35.21196736596771, 31.7704201229053],
    "logo": "https://static.wixstatic.com/media/c24061_6f496e13af1343cc98c474177b668c50~mv2.jpg/v1/crop/x_3,y_0,w_1914,h_1080/fill/w_1478,h_834,al_c,q_85,usm_0.66_1.00_0.01,enc_auto/Kahanism%20Article%20Thumbnail.jpg",
    "article": "https://www.moderninsurgent.org/n-a-issue-10",
    "status": "nonviolent",
    "size": "somewhat_small",
    "shape": "square"
},
{
    "name": "The Kremlin's Invisible Battalions: The Growing Influence of Private Military Companies",
    "coordinates": [37.61340141164371, 55.7520362373647],
    "logo": "https://static.wixstatic.com/media/c24061_28c8a935fe7c4810be2c70fae5b75e0b~mv2.jpg/v1/crop/x_3,y_0,w_1914,h_1080/fill/w_1478,h_834,al_c,q_85,usm_0.66_1.00_0.01,enc_auto/Russian%20PMCs%20Article%20Thumbnail.jpg",
    "article": "https://www.moderninsurgent.org/n-a-issue-11",
    "status": "nonviolent",
    "size": "somewhat_small",
    "shape": "square"
},
{
    "name": "Far-Right Infighting: Cozy.tv & the America First Foundation",
    "coordinates": [-81.52046025608954, 28.36011090637648],
    "logo": "https://static.wixstatic.com/media/c24061_c6ef5d3366cf4beba9e25d60de29378d~mv2.jpg/v1/crop/x_3,y_0,w_1914,h_1080/fill/w_1478,h_834,al_c,q_85,usm_0.66_1.00_0.01,enc_auto/N%26A%2012%20Thumbnail.jpg",
    "article": "https://www.moderninsurgent.org/n-a-issue-12",
    "status": "nonviolent",
    "size": "somewhat_small",
    "shape": "square"
},
{
    "name": "Beyond Gaza: Hezbollah's Rising Influence & the Future of Israeli Security",
    "coordinates": [36.21118902392038, 34.00704167254966],
    "logo": "https://static.wixstatic.com/media/c24061_a41fbb09549b462faddfdde74b091397~mv2.jpg/v1/crop/x_3,y_0,w_1914,h_1080/fill/w_1478,h_834,al_c,q_85,usm_0.66_1.00_0.01,enc_auto/N%26A%20Articles%20Thumbnails.jpg",
    "article": "https://www.moderninsurgent.org/n-a-issue-13",
    "status": "nonviolent",
    "size": "somewhat_small",
    "shape": "square"
},
{
    "name": "Negotiating with the ‘Enemy’ - How Constructive Dialogue Procures Peace",
    "coordinates": [-97.14488096378028, 31.548202690828678],
    "logo": "https://static.wixstatic.com/media/c24061_9c6639cbe31b4883bf47e4f57309456a~mv2.jpg/v1/crop/x_3,y_0,w_1914,h_1080/fill/w_1478,h_834,al_c,q_85,usm_0.66_1.00_0.01,enc_auto/N%26A%20Articles%20Thumbnails%20(2).jpg",
    "article": "https://www.moderninsurgent.org/n-a-issue-14",
    "status": "nonviolent",
    "size": "somewhat_small",
    "shape": "square"
},
{
    "name": "Spain's Road to Reconciliation: Navigating Post-ETA Challenges",
    "coordinates": [-3.0116940859797863, 43.32671705623304],
    "logo": "https://static.wixstatic.com/media/c24061_7ff67b8a84114baca9358416ee7e085a~mv2.jpg/v1/crop/x_3,y_0,w_1914,h_1080/fill/w_1478,h_834,al_c,q_85,usm_0.66_1.00_0.01,enc_auto/N%26A%20Articles%20Thumbnails%20(4).jpg",
    "article": "https://www.moderninsurgent.org/n-a-issue-15",
    "status": "nonviolent",
    "size": "somewhat_small",
    "shape": "square"
},
{
    "name": "Memetic Warfare: A Study of Psychological Tactics in the Digital Age",
    "coordinates": [-77.03517879496788, 38.96023021219881],
    "logo": "https://static.wixstatic.com/media/c24061_97c3f2b4d8744c4eaca80fdd93488513~mv2.jpg/v1/crop/x_3,y_0,w_1914,h_1080/fill/w_1478,h_834,al_c,q_85,usm_0.66_1.00_0.01,enc_auto/Memetic%20Warfare%20Thumbnail.jpg",
    "article": "https://www.moderninsurgent.org/n-a-issue-16",
    "status": "nonviolent",
    "size": "somewhat_small",
    "shape": "square"
},
{
    "name": "​Haiti: Simply Gang Violence or an Organised Insurgency?",
    "coordinates": [-72.32443537178561, 18.555493056689336],
    "logo": "https://upload.wikimedia.org/wikipedia/commons/3/3c/Jimmy_%22Barbecue%22_Cherizier_2024.png",
    "article": "https://www.moderninsurgent.org/n-a-issue-17",
    "status": "nonviolent",
    "size": "somewhat_small",
    "shape": "square"
},
{
    "name": "​The Fall of Ridouan Taghi: The ‘Mocro Mafia’, The European Super-Cartel & The Iranian Hit Squad",
    "coordinates": [4.901202940478319, 52.36629225080454],
    "logo": "https://static.wixstatic.com/media/c24061_81a5b1224b7e48559fa2162dcda26ce9~mv2.png/v1/fill/w_610,h_432,al_c,lg_1,q_85,enc_auto/Screenshot%202024-06-10%20at%2019_35_25.png",
    "article": "https://www.moderninsurgent.org/n-a-issue-18",
    "status": "nonviolent",
    "size": "somewhat_small",
    "shape": "square"
},
{
    "name": "​Colombia’s “Total Peace” Threatened in Buenaventura, Part of a Larger Collapse in Ambitious Security Plan",
    "coordinates": [-77.02476227744144, 3.8809050110166057],
    "logo": "https://www.elespectador.com/resizer/v2/SGF5N3APINARTLXFHEFD6UQCOM.jpg?auth=9e68465474893455e659efdc340d543fc9b4c2534f42bfc9c52e84c4c6e660f0&width=920&height=613&smart=true&quality=60",
    "article": "https://www.moderninsurgent.org/n-a-issue-19",
    "status": "nonviolent",
    "size": "somewhat_small",
    "shape": "square"
},
{
    "name": "​Popular Mobilization in Senegal’s 2024 Political Crisis",
    "coordinates": [-17.463769225129496, 14.714994687218011],
    "logo": "https://img.lemde.fr/2024/04/02/0/0/3321/2214/664/0/75/0/fa3aeaa_5082618-01-06.jpg",
    "article": "https://www.moderninsurgent.org/n-a-issue-20",
    "status": "nonviolent",
    "size": "somewhat_small",
    "shape": "square"
},
{
    "name": "Far-right Confusion Over Israel's Actions in Gaza",
    "coordinates": [34.68967055476383, 31.747332460112037],
    "logo": "https://cpj.org/wp-content/uploads/2024/04/000_33ZN2NE.jpg",
    "article": "https://www.moderninsurgent.org/n-a-issue-21",
    "status": "nonviolent",
    "size": "somewhat_small",
    "shape": "square"
},
{
    "name": "From Secret Societies to #miltok: The Far-right as an Aesthetic Trend",
    "coordinates": [-77.06254465525663, 38.86763921368],
    "logo": "https://www.radiofrance.fr/s3/cruiser-production/2023/02/c5dcb503-a9ea-42bd-8ec6-14b1c5d858b4/1200x680_reencodedfatimage_girl.jpg",
    "article": "https://www.moderninsurgent.org/n-a-issue-22",
    "status": "nonviolent",
    "size": "somewhat_small",
    "shape": "square"
},
{
    "name": "The Birth of Clann Éireann: A Neo-Fascist Movement in Ireland",
    "coordinates": [-6.257505459659333, 53.34429274071016],
    "logo": "https://clanneireann.ie/wp-content/uploads/2024/04/centred.jpg",
    "article": "https://www.moderninsurgent.org/n-a-issue-23",
    "status": "nonviolent",
    "size": "somewhat_small",
    "shape": "square"
},
    {
        "name": "The Sect of Revolutionaries",
        "coordinates": [23.737435449371617, 37.987681288348575],
        "logo": "https://upload.wikimedia.org/wikipedia/commons/d/d3/Anarchist_flag.svg",
        "article": "https://www.moderninsurgent.org/post/the-sect-of-revolutionaries",
        "status": "inactive",
	"size": "somewhat_small"
    },
    {
        "name": "Syrian Electronic Army (SEA)",
        "coordinates": [36.29312428762465, 33.5180495579113],
        "logo": "https://upload.wikimedia.org/wikipedia/commons/3/32/SYRIAN_ELECTRONIC_ARMY.jpg",
        "article": "https://www.moderninsurgent.org/post/syrian-electronic-army-sea",
        "status": "hacktivist",
	"size": "somewhat_small"
    },
   {
        "name": "Bloods (Gang)",
        "coordinates": [-118.22015531846809, 33.895955934440565],
        "logo": "https://static.wixstatic.com/media/f9ef56_ae8a9f6095e044e8a6526a1abbada9f5~mv2.webp/v1/fill/w_524,h_524,al_c,q_80,usm_0.66_1.00_0.01,enc_auto/f9ef56_ae8a9f6095e044e8a6526a1abbada9f5~mv2.webp",
        "article": "https://www.moderninsurgent.org/post/bloods",
        "status": "violent",
	"size": "somewhat_large"
    },
   {
        "name": "Barisan Revolusi Nasional (BRN)",
        "coordinates": [101.4126150097162, 6.719296672286138],
        "logo": "https://upload.wikimedia.org/wikipedia/commons/2/21/Flag_of_the_Barisan_Revolusi_Nasional_%28Koordinasi%29.svg",
        "article": "https://www.moderninsurgent.org/post/barisan-revolusi-nasional-brn",
        "status": "violent",
	"size": "somewhat_large"
    },
   {
        "name": "Euskadi Ta Askatasuna (ETA)",
        "coordinates": [-2.9361401257336324, 43.263441114179265],
        "logo": "https://upload.wikimedia.org/wikipedia/commons/0/0d/ETA_BASQUE.svg",
        "article": "https://www.moderninsurgent.org/post/euskadi-ta-askatasuna-eta",
        "status": "inactive",
	"size": "somewhat_small"
    },
   {
        "name": "Mullah Dadullah Front",
        "coordinates": [69.27781769073995, 34.57279967038534],
        "logo": "https://upload.wikimedia.org/wikipedia/commons/5/5c/Flag_of_the_Taliban.svg",
        "article": "https://www.moderninsurgent.org/post/mullah-dadullah-front",
        "status": "inactive",
	"size": "somewhat_small"
    },
   {
        "name": "Mullah Dadullah Front",
        "coordinates": [69.27781769073995, 34.57279967038534],
        "logo": "https://upload.wikimedia.org/wikipedia/commons/5/5c/Flag_of_the_Taliban.svg",
        "article": "https://www.moderninsurgent.org/post/mullah-dadullah-front",
        "status": "inactive",
	"size": "somewhat_small"
    }
]
